City_ID,City,Lat,Lng,Max Temp,Humidity,Cloudiness,Wind Speed,Country,Date
0,salisbury,51.0693,-1.7957,-1.7957,82,100,6.17,GB,1674755523
1,busselton,-33.65,115.3333,115.3333,91,100,2.82,AU,1674755806
2,mehamn,71.0357,27.8492,27.8492,69,75,10.29,NO,1674755806
3,tuktoyaktuk,69.4541,-133.0374,-133.0374,75,20,1.54,CA,1674755806
4,ribeira grande,38.5167,-28.7,-28.7,63,20,11.32,PT,1674755807
5,ushuaia,-54.8,-68.3,-68.3,62,75,11.83,AR,1674755807
6,hualmay,-11.0964,-77.6139,-77.6139,69,79,4.31,PE,1674755807
7,bredasdorp,-34.5322,20.0403,20.0403,65,0,3.2,ZA,1674755808
8,port alfred,-33.5906,26.891,26.891,88,20,0.89,ZA,1674755808
9,saint george,37.1041,-113.5841,-113.5841,42,2,1.34,US,1674755809
10,puerto ayora,-0.7393,-90.3518,-90.3518,84,71,4.02,EC,1674755809
11,coihaique,-45.5752,-72.0662,-72.0662,51,75,3.09,CL,1674755811
12,cape town,-33.9258,18.4232,18.4232,63,0,8.75,ZA,1674755523
13,klaksvik,62.2266,-6.589,-6.589,79,78,11.18,FO,1674755811
14,hobart,-42.8794,147.3294,147.3294,79,100,0.0,AU,1674755716
15,acapulco,16.8634,-99.8901,-99.8901,44,8,2.51,MX,1674755750
16,sisimiut,66.9395,-53.6735,-53.6735,81,100,12.38,GL,1674755812
17,burnie,-41.0667,145.9167,145.9167,71,40,5.08,AU,1674755812
18,ilulissat,69.2167,-51.1,-51.1,94,100,4.52,GL,1674755813
19,eganville,45.5334,-77.0994,-77.0994,90,100,5.46,CA,1674755813
20,strezhevoy,60.7333,77.5889,77.5889,94,100,5.99,RU,1674755813
21,constitucion,-35.3333,-72.4167,-72.4167,56,0,6.58,CL,1674755814
22,korla,41.7597,86.1469,86.1469,63,82,0.3,CN,1674755814
23,beringovskiy,63.05,179.3167,179.3167,94,100,6.96,RU,1674755814
24,airai,-8.9266,125.4092,125.4092,90,64,0.99,TL,1674755815
25,puri,19.8,85.85,85.85,74,3,3.35,IN,1674755815
26,tasiilaq,65.6145,-37.6368,-37.6368,97,100,2.5,GL,1674755816
27,mataura,-46.1927,168.8643,168.8643,77,83,1.18,NZ,1674755816
28,pozoblanco,38.3791,-4.8483,-4.8483,77,80,2.52,ES,1674755816
29,port elizabeth,-33.918,25.5701,25.5701,72,0,2.06,ZA,1674755817
30,sirjan,29.452,55.6814,55.6814,66,100,4.48,IR,1674755817
31,vardo,70.3705,31.1107,31.1107,100,100,13.38,NO,1674755818
32,guhagar,17.4842,73.1929,73.1929,68,1,3.18,IN,1674755818
33,barrow,71.2906,-156.7887,-156.7887,95,98,7.62,US,1674755819
34,sao filipe,14.8961,-24.4956,-24.4956,74,50,3.44,CV,1674755819
35,georgetown,5.4112,100.3354,100.3354,82,20,2.24,MY,1674755784
36,norman wells,65.282,-126.8329,-126.8329,84,100,0.0,CA,1674755819
37,pisco,-13.7,-76.2167,-76.2167,73,0,5.14,PE,1674755820
38,samarai,-10.6167,150.6667,150.6667,79,100,6.82,PG,1674755820
39,vestmannaeyjar,63.4427,-20.2734,-20.2734,93,100,11.83,IS,1674755821
40,cidreira,-30.1811,-50.2056,-50.2056,73,40,6.92,BR,1674755821
41,fairbanks,64.8378,-147.7164,-147.7164,86,100,1.54,US,1674755821
42,stepnyak,52.8339,70.7803,70.7803,84,6,10.84,KZ,1674755822
43,lobito,-12.3481,13.5456,13.5456,78,69,2.44,AO,1674755822
44,hilo,19.7297,-155.09,-155.09,82,100,0.89,US,1674755823
45,iqaluit,63.7506,-68.5145,-68.5145,63,100,7.72,CA,1674755823
46,nikolskoye,59.7035,30.7861,30.7861,99,100,2.28,RU,1674755823
47,sarkand,45.41,79.9186,79.9186,75,100,2.46,KZ,1674755824
48,punta arenas,-53.15,-70.9167,-70.9167,54,75,11.32,CL,1674755692
49,ouadda,8.0777,22.4007,22.4007,19,88,2.48,CF,1674755824
50,sioux lookout,50.1001,-91.917,-91.917,78,100,2.06,CA,1674755825
51,port moresby,-9.4431,147.1797,147.1797,100,20,2.57,PG,1674755723
52,west helena,34.5507,-90.6418,-90.6418,55,49,5.56,US,1674755825
53,saldanha,-33.0117,17.9442,17.9442,80,1,9.61,ZA,1674755826
54,hithadhoo,-0.6,73.0833,73.0833,74,51,2.77,MV,1674755826
55,mar del plata,-38.0023,-57.5575,-57.5575,100,100,5.14,AR,1674755827
56,rikitea,-23.1203,-134.9692,-134.9692,76,7,8.25,PF,1674755827
57,fortuna,40.5982,-124.1573,-124.1573,76,0,3.6,US,1674755827
58,bambous virieux,-20.3428,57.7575,57.7575,100,75,1.54,MU,1674755828
59,san juan,-31.5375,-68.5364,-68.5364,24,0,5.43,AR,1674755827
60,avera,33.194,-82.5271,-82.5271,48,8,6.94,US,1674755828
61,bilibino,68.0546,166.4372,166.4372,72,4,3.36,RU,1674755829
62,san ramon,37.7799,-121.978,-121.978,49,0,1.74,US,1674755696
63,atuona,-9.8,-139.0333,-139.0333,75,78,7.7,PF,1674755829
64,livny,52.4253,37.6069,37.6069,60,4,2.63,RU,1674755830
65,katsuura,35.1333,140.3,140.3,55,95,4.51,JP,1674755830
66,baruun-urt,46.6806,113.2792,113.2792,86,19,3.79,MN,1674755830
67,vanavara,60.34,102.2797,102.2797,100,99,1.62,RU,1674755831
68,hermanus,-34.4187,19.2345,19.2345,75,0,2.46,ZA,1674755831
69,saskylakh,71.9167,114.0833,114.0833,97,26,4.55,RU,1674755832
70,novikovo,51.1537,37.8879,37.8879,57,0,2.1,RU,1674755832
71,east london,-33.0153,27.9116,27.9116,78,0,3.6,ZA,1674755833
72,roald,62.5833,6.1333,6.1333,87,75,2.06,NO,1674755833
73,abha,18.2164,42.5053,42.5053,72,0,4.12,SA,1674755825
74,aqtobe,50.2797,57.2072,57.2072,84,0,1.0,KZ,1674755833
75,kruisfontein,-34.0033,24.7314,24.7314,74,0,1.48,ZA,1674755834
76,balikpapan,-1.2675,116.8289,116.8289,88,20,2.57,ID,1674755834
77,dikson,73.5069,80.5464,80.5464,87,100,9.35,RU,1674755835
78,bluff,-46.6,168.3333,168.3333,79,88,4.38,NZ,1674755835
79,longyearbyen,78.2186,15.6401,15.6401,61,75,3.09,SJ,1674755836
80,marienburg,54.0359,19.0266,19.0266,86,98,0.74,PL,1674755836
81,chokurdakh,70.6333,147.9167,147.9167,100,100,1.0,RU,1674755836
82,coahuayana,18.7333,-103.6833,-103.6833,31,0,2.34,MX,1674755837
83,omboue,-1.5746,9.2618,9.2618,82,85,2.36,GA,1674755837
84,toamasina,-18.1667,49.3833,49.3833,89,75,2.06,MG,1674755838
85,clyde river,70.4692,-68.5914,-68.5914,76,75,1.03,CA,1674755838
86,kapaa,22.0752,-159.319,-159.319,71,4,0.89,US,1674755838
87,torbay,47.6666,-52.7314,-52.7314,81,100,8.75,CA,1674755839
88,provideniya,64.3833,-173.3,-173.3,98,86,1.53,RU,1674755839
89,egvekinot,66.3167,-179.1667,-179.1667,87,76,3.88,RU,1674755840
90,faanui,-16.4833,-151.75,-151.75,77,10,7.67,PF,1674755840
91,buala,-8.145,159.5921,159.5921,82,100,1.15,SB,1674755840
92,minggang,32.4586,114.0486,114.0486,34,68,2.53,CN,1674755841
93,baoshan,46.5586,131.4244,131.4244,96,52,1.97,CN,1674755841
94,leningradskiy,69.3833,178.4167,178.4167,95,10,1.47,RU,1674755841
95,henties bay,-22.116,14.2845,14.2845,80,15,5.89,NA,1674755842
96,vao,-22.6667,167.4833,167.4833,84,48,3.97,NC,1674755842
97,acajutla,13.5928,-89.8275,-89.8275,49,27,2.63,SV,1674755843
98,kahului,20.8947,-156.47,-156.47,91,100,3.13,US,1674755843
99,new norfolk,-42.7826,147.0587,147.0587,64,34,0.73,AU,1674755843
100,mumford,5.2618,-0.759,-0.759,79,8,5.95,GH,1674755844
101,bengkulu,-3.8004,102.2655,102.2655,90,100,2.96,ID,1674755844
102,khatanga,71.9667,102.5,102.5,82,96,5.53,RU,1674755844
103,kodiak,57.79,-152.4072,-152.4072,83,35,1.24,US,1674755845
104,boyuibe,-20.4167,-63.2833,-63.2833,44,100,4.2,BO,1674755845
105,umm lajj,25.0213,37.2685,37.2685,56,47,3.73,SA,1674755846
106,snihurivka,47.0758,32.8052,32.8052,75,0,2.93,UA,1674755846
107,san patricio,28.017,-97.5169,-97.5169,41,3,4.61,US,1674755847
108,bethel,41.3712,-73.414,-73.414,63,38,2.68,US,1674755847
109,salym,60.0625,71.4789,71.4789,92,100,5.53,RU,1674755847
110,butaritari,3.0707,172.7902,172.7902,80,47,8.03,KI,1674755848
111,nanortalik,60.1432,-45.2371,-45.2371,73,100,12.83,GL,1674755848
112,rio gallegos,-51.6226,-69.2181,-69.2181,31,75,9.26,AR,1674755848
113,panaba,21.2833,-88.2667,-88.2667,93,100,6.67,MX,1674755849
114,dingle,10.9995,122.6711,122.6711,97,100,3.52,PH,1674755849
115,jamestown,42.097,-79.2353,-79.2353,93,100,7.2,US,1674755703
116,talnakh,69.4865,88.3972,88.3972,91,100,5.72,RU,1674755850
117,lara,-38.0167,144.4,144.4,80,75,2.57,AU,1674755850
118,vila franca do campo,37.7167,-25.4333,-25.4333,71,54,5.72,PT,1674755850
119,karla,59.3723,24.9275,24.9275,81,100,2.57,EE,1674755851
120,mahon,39.8885,4.2658,4.2658,81,75,3.09,ES,1674755851
121,vaini,-21.2,-175.2,-175.2,94,100,2.57,TO,1674755852
122,evensk,61.95,159.2333,159.2333,43,100,11.43,RU,1674755852
123,pevek,69.7008,170.3133,170.3133,85,44,0.74,RU,1674755852
124,tautira,-17.7333,-149.15,-149.15,79,25,8.62,PF,1674755853
125,verkhoyansk,67.5447,133.385,133.385,100,52,0.92,RU,1674755853
126,veraval,20.9,70.3667,70.3667,39,0,6.3,IN,1674755854
127,avarua,-21.2078,-159.775,-159.775,89,40,2.57,CK,1674755854
128,killybegs,54.6333,-8.45,-8.45,72,100,2.62,IE,1674755854
129,upernavik,72.7868,-56.1549,-56.1549,94,100,4.5,GL,1674755855
130,mungaa,-4.9667,34.8833,34.8833,92,100,0.64,TZ,1674755856
131,luderitz,-26.6481,15.1594,15.1594,67,0,10.27,NA,1674755857
132,maxixe,-23.8597,35.3472,35.3472,74,20,7.2,MZ,1674755857
133,terney,45.0503,136.6092,136.6092,77,0,6.1,RU,1674755858
134,orlik,52.5178,99.825,99.825,93,99,1.6,RU,1674755858
135,muros,42.7762,-9.0603,-9.0603,76,36,7.31,ES,1674755858
136,sevilla,37.3824,-5.9761,-5.9761,57,0,1.54,ES,1674755859
137,petropavlovsk-kamchatskiy,53.0452,158.6483,158.6483,50,75,2.0,RU,1674755859
138,tromso,69.6496,18.957,18.957,80,75,4.12,NO,1674755645
139,nizhniy tsasuchey,50.5167,115.1333,115.1333,98,50,1.47,RU,1674755860
140,broome,42.2506,-75.833,-75.833,73,100,4.92,US,1674755860
141,itarema,-2.9248,-39.9167,-39.9167,65,91,6.02,BR,1674755860
142,bafoulabe,13.8065,-10.8321,-10.8321,10,39,2.9,ML,1674755861
143,gamba,-2.65,10.0,10.0,81,99,1.55,GA,1674755861
144,vanimo,-2.6741,141.3028,141.3028,90,76,1.63,PG,1674755861
145,kashiwazaki,37.3667,138.55,138.55,94,100,3.71,JP,1674755862
146,dergachi,51.2328,48.7659,48.7659,78,83,3.39,RU,1674755862
147,kaeo,-35.1,173.7833,173.7833,97,100,7.74,NZ,1674755863
148,sitka,57.0531,-135.33,-135.33,98,100,2.67,US,1674755863
149,yola,9.2,12.4833,12.4833,28,0,2.06,NG,1674755863
150,victoria,22.2855,114.1577,114.1577,71,100,2.68,HK,1674755679
151,haines junction,60.7522,-137.5108,-137.5108,98,92,1.11,CA,1674755864
152,tacuarembo,-31.7333,-55.9833,-55.9833,37,74,4.92,UY,1674755568
153,kachug,53.9606,105.8817,105.8817,94,100,1.17,RU,1674755864
154,kupang,-10.1667,123.5833,123.5833,86,90,1.37,ID,1674755865
155,novopokrovka,49.8425,36.5477,36.5477,58,0,1.44,UA,1674755865
156,yellowknife,62.456,-114.3525,-114.3525,85,75,5.66,CA,1674755452
157,kavieng,-2.5744,150.7967,150.7967,73,100,3.82,PG,1674755866
158,dondo,-19.6094,34.7431,34.7431,77,29,4.03,MZ,1674755866
159,tuatapere,-46.1333,167.6833,167.6833,87,93,1.44,NZ,1674755866
160,vila velha,-20.3297,-40.2925,-40.2925,87,75,4.63,BR,1674755867
161,matamoros,25.5333,-103.25,-103.25,34,45,3.88,MX,1674755867
162,rorvik,64.8621,11.2373,11.2373,86,40,0.0,NO,1674755867
163,tiksi,71.6872,128.8694,128.8694,98,71,3.17,RU,1674755868
164,mount gambier,-37.8333,140.7667,140.7667,93,2,2.3,AU,1674755868
165,asau,46.4333,26.4,26.4,97,94,1.01,RO,1674755869
166,lasa,46.6166,10.7002,10.7002,73,57,2.71,IT,1674755869
167,oum hadjer,13.2954,19.6966,19.6966,9,99,3.42,TD,1674755869
168,urumqi,43.801,87.6005,87.6005,84,75,1.0,CN,1674755870
169,sao joaquim,-28.2939,-49.9317,-49.9317,60,54,1.37,BR,1674755870
170,whitehorse,60.7161,-135.0538,-135.0538,64,75,1.03,CA,1674755870
171,cayenne,4.9333,-52.3333,-52.3333,78,0,3.09,GF,1674755871
172,cherskiy,68.75,161.3,161.3,87,6,1.09,RU,1674755871
173,chuy,-33.6971,-53.4616,-53.4616,48,94,3.29,UY,1674755871
174,shimoda,34.6667,138.95,138.95,66,87,7.88,JP,1674755872
175,te anau,-45.4167,167.7167,167.7167,95,98,1.26,NZ,1674755872
176,alofi,-19.0595,-169.9187,-169.9187,94,20,0.51,NU,1674755873
177,flinders,-34.5833,150.8552,150.8552,87,84,2.24,AU,1674755873
178,riyadh,24.6877,46.7219,46.7219,74,100,5.47,SA,1674755742
179,lompoc,34.6391,-120.4579,-120.4579,75,0,0.45,US,1674755873
180,trinidad,-14.8333,-64.9,-64.9,62,75,5.66,BO,1674755874
181,mokokchung,26.3333,94.5333,94.5333,63,64,1.65,IN,1674755874
182,husavik,66.0449,-17.3389,-17.3389,92,100,5.26,IS,1674755874
183,san cristobal,7.7669,-72.225,-72.225,29,41,2.49,VE,1674755875
184,naze,28.3667,129.4833,129.4833,84,96,7.17,JP,1674755875
185,honiara,-9.4333,159.95,159.95,86,85,1.83,SB,1674755623
186,castro,-24.7911,-50.0119,-50.0119,38,4,2.46,BR,1674755876
187,qaanaaq,77.484,-69.3632,-69.3632,67,96,3.08,GL,1674755876
188,lebu,-37.6167,-73.65,-73.65,69,43,5.75,CL,1674755876
189,tahta,26.7693,31.5021,31.5021,22,35,0.61,EG,1674755877
190,nicoya,10.1483,-85.452,-85.452,44,40,7.65,CR,1674755877
191,erenhot,43.6475,111.9767,111.9767,77,0,5.17,CN,1674755878
192,iquitos,-3.7481,-73.2472,-73.2472,74,40,3.09,PE,1674755878
193,roebourne,-20.7833,117.1333,117.1333,54,3,3.82,AU,1674755879
194,kaitangata,-46.2817,169.8464,169.8464,77,100,2.15,NZ,1674755879
195,etaples,50.5219,1.6332,1.6332,87,75,4.12,FR,1674755879
196,cabo san lucas,22.8909,-109.9124,-109.9124,45,93,0.19,MX,1674755841
197,gambela,8.25,34.5833,34.5833,20,80,0.18,ET,1674755880
198,ouesso,1.6136,16.0517,16.0517,47,92,0.93,CG,1674755880
199,lavrentiya,65.5833,-171.0,-171.0,98,99,2.24,RU,1674755881
200,plettenberg bay,-34.0527,23.3716,23.3716,74,7,0.23,ZA,1674755881
201,severo-kurilsk,50.6789,156.125,156.125,91,100,3.9,RU,1674755882
202,kutum,14.2,24.6667,24.6667,13,51,4.52,SD,1674755882
203,sao miguel do araguaia,-13.275,-50.1628,-50.1628,88,100,1.28,BR,1674755883
204,richards bay,-28.783,32.0377,32.0377,82,12,2.43,ZA,1674755883
205,tiznit,29.5833,-9.5,-9.5,49,0,4.45,MA,1674755883
206,marmaris,36.855,28.2742,28.2742,78,78,9.52,TR,1674755884
207,bud,39.447,-86.1758,-86.1758,86,100,6.5,US,1674755884
208,nalut,30.3333,10.85,10.85,45,56,3.89,LY,1674755885
209,balabac,7.9868,117.0645,117.0645,85,99,7.46,PH,1674755885
210,matagami,49.7502,-77.6328,-77.6328,78,100,4.63,CA,1674755886
211,srivardhan,18.0333,73.0167,73.0167,67,0,3.88,IN,1674755886
212,awbari,26.5921,12.7805,12.7805,15,0,2.67,LY,1674755886
213,albany,42.6001,-73.9662,-73.9662,71,62,0.89,US,1674755848
214,hokitika,-42.7167,170.9667,170.9667,86,29,1.77,NZ,1674755819
215,khonsa,27.0167,95.5667,95.5667,62,84,1.82,IN,1674755887
216,pocone,-16.2567,-56.6228,-56.6228,50,62,2.45,BR,1674755887
217,hasaki,35.7333,140.8333,140.8333,57,100,5.18,JP,1674755888
218,komsomolskiy,40.4272,71.7189,71.7189,86,3,2.06,UZ,1674755888
219,hay river,60.8156,-115.7999,-115.7999,78,100,8.75,CA,1674755889
220,dunedin,-45.8742,170.5036,170.5036,82,100,1.54,NZ,1674755889
221,masuguru,-11.3667,38.4167,38.4167,98,100,1.65,TZ,1674755889
222,harwich,51.9419,1.2844,1.2844,83,29,4.47,GB,1674755890
223,esperance,-33.8667,121.9,121.9,75,55,4.29,AU,1674755890
224,bridlington,54.0831,-0.1919,-0.1919,79,78,7.87,GB,1674755890
225,vieux-habitants,16.0589,-61.7659,-61.7659,58,47,4.31,GP,1674755891
226,praia da vitoria,38.7333,-27.0667,-27.0667,67,20,6.28,PT,1674755891
227,amazar,53.858,120.875,120.875,99,49,1.36,RU,1674755892
228,nuuk,64.1835,-51.7216,-51.7216,72,100,4.47,GL,1674755892
229,sambava,-14.2667,50.1667,50.1667,89,100,3.81,MG,1674755892
230,kabalo,-6.05,26.9167,26.9167,88,54,1.56,CD,1674755893
231,ahipara,-35.1667,173.1667,173.1667,95,100,6.08,NZ,1674755893
232,algiers,36.7525,3.042,3.042,76,40,1.54,DZ,1674755894
233,honningsvag,70.9821,25.9704,25.9704,74,40,11.83,NO,1674755690
234,kyra,49.5776,111.9753,111.9753,90,38,1.79,RU,1674755894
235,batagay,67.6333,134.6333,134.6333,100,54,0.63,RU,1674755895
236,laguna,38.421,-121.4238,-121.4238,78,0,0.0,US,1674755759
237,moose factory,51.2585,-80.6094,-80.6094,84,100,3.6,CA,1674755895
238,aleksandrov gay,50.147,48.5704,48.5704,67,39,2.81,RU,1674755896
239,jizan,17.3333,42.6667,42.6667,72,13,2.91,SA,1674755896
240,louis trichardt,-23.0439,29.9032,29.9032,55,2,2.09,ZA,1674755896
241,gushikawa,26.3544,127.8686,127.8686,77,91,5.2,JP,1674755897
242,skibotn,69.3913,20.2679,20.2679,92,99,4.27,NO,1674755898
243,havre-saint-pierre,50.2334,-63.5986,-63.5986,86,100,12.86,CA,1674755898
244,college,64.8569,-147.8028,-147.8028,85,100,1.54,US,1674755899
245,codrington,-38.2667,141.9667,141.9667,89,5,3.56,AU,1674755899
246,billings,45.7833,-108.5007,-108.5007,47,100,7.15,US,1674755643
247,gayny,60.3071,54.3241,54.3241,93,100,4.25,RU,1674755900
248,lincoln,40.8,-96.667,-96.667,74,100,3.6,US,1674755579
249,dubbo,-32.25,148.6167,148.6167,60,53,5.66,AU,1674755901
250,malakal,9.5334,31.6605,31.6605,16,74,2.59,SS,1674755902
251,visby,57.6409,18.296,18.296,87,75,6.69,SE,1674755902
252,khandbari,27.3747,87.2039,87.2039,61,100,1.41,NP,1674755903
253,mokolo,10.7398,13.8019,13.8019,11,49,2.25,CM,1674755903
254,lagoa,39.05,-27.9833,-27.9833,72,7,8.52,PT,1674755903
255,marsh harbour,26.5412,-77.0636,-77.0636,73,0,4.85,BS,1674755904
256,labuhan,-6.8844,112.2051,112.2051,88,100,4.13,ID,1674755904
257,kudahuvadhoo,2.6708,72.8944,72.8944,75,39,4.48,MV,1674755905
258,tommot,58.9564,126.2925,126.2925,99,73,0.79,RU,1674755905
259,sept-iles,50.2001,-66.3821,-66.3821,95,100,9.26,CA,1674755862
260,sinnamary,5.3833,-52.95,-52.95,65,24,2.82,GF,1674755905
261,aykhal,66.0,111.5,111.5,100,100,3.27,RU,1674755906
262,almaty,43.25,76.95,76.95,85,20,2.0,KZ,1674755906
263,ilebo,-4.3167,20.5833,20.5833,69,69,0.3,CD,1674755907
264,isiro,2.7739,27.616,27.616,45,45,0.55,CD,1674755907
265,santa rosa de viterbo,-21.4728,-47.3631,-47.3631,53,1,2.63,BR,1674755907
266,saint-augustin,51.226,-58.6502,-58.6502,94,100,8.06,CA,1674755908
267,marystown,47.1666,-55.1483,-55.1483,86,100,9.99,CA,1674755908
268,bonavista,48.6499,-53.1147,-53.1147,79,76,8.41,CA,1674755909
269,cuiluan,47.72,128.648,128.648,99,100,0.56,CN,1674755909
270,biskamzha,53.4497,89.5272,89.5272,85,100,5.85,RU,1674755909
271,umm kaddadah,13.6017,26.6876,26.6876,14,96,5.8,SD,1674755910
272,olafsvik,64.8945,-23.7142,-23.7142,83,100,10.58,IS,1674755910
273,manowa,8.1667,-10.75,-10.75,61,93,1.15,SL,1674755911
274,mount isa,-20.7333,139.5,139.5,83,65,0.0,AU,1674755911
275,namie,37.4833,141.0,141.0,76,83,3.64,JP,1674755911
276,merauke,-8.4667,140.3333,140.3333,90,95,3.81,ID,1674755912
277,verkhnevilyuysk,63.4453,120.3167,120.3167,100,83,1.14,RU,1674755912
278,fiche,9.8,38.7333,38.7333,49,67,3.56,ET,1674755912
279,half moon bay,37.4636,-122.4286,-122.4286,46,0,4.12,US,1674755656
280,warrnambool,-38.3833,142.4833,142.4833,83,4,3.62,AU,1674755913
281,buin,-33.7333,-70.75,-70.75,23,0,4.9,CL,1674755913
282,beisfjord,68.3751,17.5988,17.5988,90,100,2.58,NO,1674755914
283,davidson,36.1501,-86.7833,-86.7833,78,100,5.14,US,1674755914
284,mulchen,-37.7167,-72.2333,-72.2333,21,83,3.09,CL,1674755915
285,maumere,-8.6199,122.2111,122.2111,84,91,3.03,ID,1674755915
286,souillac,-20.5167,57.5167,57.5167,100,75,1.54,MU,1674755899
287,acari,-15.4311,-74.6158,-74.6158,65,97,5.08,PE,1674755915
288,rawson,-43.3002,-65.1023,-65.1023,20,0,9.26,AR,1674755916
289,saint-philippe,-21.3585,55.7679,55.7679,86,82,1.37,RE,1674755916
290,yurginskoye,56.8189,67.3921,67.3921,93,100,7.51,RU,1674755916
291,namibe,-15.1961,12.1522,12.1522,78,83,3.79,AO,1674755917
292,cananeia,-25.0147,-47.9267,-47.9267,61,39,4.35,BR,1674755917
293,barra do garcas,-15.89,-52.2567,-52.2567,62,40,0.0,BR,1674755918
294,comodoro rivadavia,-45.8667,-67.5,-67.5,23,0,10.29,AR,1674755918
295,polunochnoye,60.8697,60.4153,60.4153,77,86,5.97,RU,1674755918
296,forrest city,35.0081,-90.7898,-90.7898,53,13,5.74,US,1674755670
297,hambantota,6.1241,81.1185,81.1185,100,20,1.54,LK,1674755919
298,yerbogachen,61.2767,108.0108,108.0108,98,100,1.77,RU,1674755919
299,xiaoweizhai,26.1903,107.5125,107.5125,65,85,3.75,CN,1674755920
300,guerrero negro,27.9769,-114.0611,-114.0611,27,99,2.16,MX,1674755920
301,bumba,2.1833,22.4667,22.4667,46,73,1.16,CD,1674755920
302,kysyl-syr,63.8986,122.7617,122.7617,100,67,1.8,RU,1674755921
303,arraial do cabo,-22.9661,-42.0278,-42.0278,74,40,6.69,BR,1674755921
304,sobolevo,54.4299,31.8996,31.8996,93,55,3.89,RU,1674755922
305,verkh-usugli,52.7,115.1667,115.1667,96,99,0.89,RU,1674755922
306,port lincoln,-34.7333,135.8667,135.8667,75,0,6.82,AU,1674755923
307,waingapu,-9.6567,120.2641,120.2641,86,100,3.01,ID,1674755923
308,ancud,-41.8697,-73.8203,-73.8203,56,7,4.38,CL,1674755924
309,krasnogorskoye,52.2953,86.1979,86.1979,99,93,1.44,RU,1674755924
310,lata,40.1629,-8.3327,-8.3327,90,60,2.44,PT,1674755925
311,rosetta,31.4044,30.4164,30.4164,68,0,7.41,EG,1674755925
312,naron,43.5167,-8.1528,-8.1528,79,83,7.92,ES,1674755925
313,ajaigarh,24.9,80.2667,80.2667,85,34,2.23,IN,1674755926
314,portel,-1.9356,-50.8211,-50.8211,54,96,1.79,BR,1674755926
315,ewa beach,21.3156,-158.0072,-158.0072,76,30,4.02,US,1674755927
316,chernyshevskiy,63.0128,112.4714,112.4714,99,100,1.34,RU,1674755927
317,newtown saint boswells,55.5833,-2.6833,-2.6833,87,78,1.97,GB,1674755927
318,botwood,49.1499,-55.3482,-55.3482,83,84,4.47,CA,1674755928
319,nhamunda,-2.1861,-56.7131,-56.7131,80,100,0.77,BR,1674755928
320,marawi,7.9986,124.2928,124.2928,96,99,0.56,PH,1674755928
321,harper,4.375,-7.7169,-7.7169,76,15,3.8,LR,1674755929
322,thompson,55.7435,-97.8558,-97.8558,77,100,2.06,CA,1674755781
323,mapiripan,2.8892,-72.1256,-72.1256,31,35,5.19,CO,1674755929
324,bochum,51.4833,7.2167,7.2167,95,100,0.45,DE,1674755930
325,narsaq,60.9167,-46.05,-46.05,80,72,7.24,GL,1674755930
326,kalemie,-5.9475,29.1947,29.1947,87,100,0.79,CD,1674755930
327,anadyr,64.75,177.4833,177.4833,70,75,7.0,RU,1674755931
328,chebsara,59.2002,38.8356,38.8356,99,100,3.8,RU,1674755931
329,ponta do sol,32.6667,-17.1,-17.1,55,4,4.06,PT,1674755931
330,florida,28.7505,-82.5001,-82.5001,67,0,3.09,US,1674755650
331,matara,5.9485,80.5353,80.5353,88,85,1.24,LK,1674755932
332,mahbubnagar,16.7333,77.9833,77.9833,43,1,2.76,IN,1674755932
333,esfarayen,37.0765,57.5101,57.5101,43,0,1.12,IR,1674755932
334,isangel,-19.55,169.2667,169.2667,87,11,2.68,VU,1674755933
335,tezu,27.9167,96.1667,96.1667,39,66,1.56,IN,1674755933
336,parakai,-36.65,174.4333,174.4333,96,100,6.86,NZ,1674755934
337,port hardy,50.6996,-127.4199,-127.4199,100,75,1.54,CA,1674755934
338,the valley,18.217,-63.0578,-63.0578,61,20,6.17,AI,1674755935
339,silifke,36.3778,33.9344,33.9344,60,42,2.5,TR,1674755935
340,belmonte,-15.8631,-38.8828,-38.8828,61,73,5.04,BR,1674755935
341,carnarvon,-24.8667,113.6333,113.6333,78,18,8.34,AU,1674755936
342,asyut,27.181,31.1837,31.1837,25,26,0.99,EG,1674755936
343,tocopilla,-22.092,-70.1979,-70.1979,71,31,3.68,CL,1674755937
344,peringat,6.0333,102.2833,102.2833,94,20,0.0,MY,1674755937
345,mwanza,-2.5167,32.9,32.9,56,87,2.81,TZ,1674755937
346,puksoozero,62.5903,40.6066,40.6066,99,100,1.21,RU,1674755938
347,kavaratti,10.5669,72.642,72.642,77,40,4.25,IN,1674755938
348,zamora,-4.0692,-78.9567,-78.9567,62,35,2.12,EC,1674755939
349,xining,36.6167,101.7667,101.7667,50,13,1.25,CN,1674755939
350,mandalgovi,45.7625,106.2708,106.2708,80,0,5.73,MN,1674755940
351,el tigre,8.8875,-64.2454,-64.2454,35,20,4.64,VE,1674755940
352,turan,16.0678,108.2208,108.2208,88,75,0.0,VN,1674755649
353,casper,42.8666,-106.3131,-106.3131,79,82,7.71,US,1674755941
354,nioro,13.35,-15.75,-15.75,11,79,3.55,GM,1674755941
355,atar,20.5169,-13.0499,-13.0499,13,81,6.21,MR,1674755942
356,troitskoye,52.9821,84.6757,84.6757,72,57,6.97,RU,1674755942
357,kainantu,-6.2887,145.8655,145.8655,99,100,0.46,PG,1674755943
358,jobabo,20.9692,-76.2994,-76.2994,37,5,4.85,CU,1674755943
359,santiago,-33.4569,-70.6483,-70.6483,37,0,5.66,CL,1674755307
360,khasan,42.4308,130.6434,130.6434,80,4,3.55,RU,1674755944
361,velyka lepetykha,47.1757,33.9436,33.9436,70,0,3.09,UA,1674755944
362,nueve de julio,-35.4444,-60.8831,-60.8831,23,23,4.05,AR,1674755944
363,cap-aux-meules,47.3821,-61.8597,-61.8597,93,100,12.86,CA,1674755945
364,touros,-5.1989,-35.4608,-35.4608,58,8,5.56,BR,1674755945
365,fare,-16.7,-151.0167,-151.0167,76,9,7.64,PF,1674755946
366,la ronge,55.1001,-105.2842,-105.2842,85,100,7.72,CA,1674755946
367,springdale,36.1867,-94.1288,-94.1288,72,100,2.57,US,1674755690
368,gladstone,-23.85,151.25,151.25,83,75,2.57,AU,1674755705
369,olinda,-8.0089,-34.8553,-34.8553,62,40,4.12,BR,1674755947
370,araouane,18.9048,-3.5265,-3.5265,13,53,4.69,ML,1674755948
371,baker city,44.7749,-117.8344,-117.8344,94,24,1.11,US,1674755948
372,floro,61.5996,5.0328,5.0328,70,20,3.6,NO,1674755948
373,alekseyevsk,57.8406,108.3492,108.3492,94,100,4.66,RU,1674755949
374,uglich,57.5275,38.3317,38.3317,98,100,4.55,RU,1674755949
375,xai-xai,-25.0519,33.6442,33.6442,78,7,4.82,MZ,1674755950
376,geraldton,-28.7667,114.6,114.6,68,8,5.66,AU,1674755883
377,mountain home,43.133,-115.6912,-115.6912,85,95,2.78,US,1674755877
378,kiama,-34.6833,150.8667,150.8667,90,93,0.89,AU,1674755950
379,mahibadhoo,3.7833,72.9667,72.9667,73,59,4.94,MV,1674755951
380,tandalti,13.0167,31.8667,31.8667,10,39,5.42,SD,1674755949
381,kralendijk,12.15,-68.2667,-68.2667,71,27,8.04,BQ,1674755951
382,griffith,41.5284,-87.4237,-87.4237,86,100,5.66,US,1674755952
383,dafeng,23.4517,108.5881,108.5881,80,100,3.55,CN,1674755952
384,vazante,-17.9869,-46.9078,-46.9078,64,44,1.7,BR,1674755952
385,ligayan,4.6533,119.4706,119.4706,78,100,4.75,PH,1674755953
386,porto seguro,-16.4497,-39.0647,-39.0647,62,20,8.23,BR,1674755953
387,champerico,14.3,-91.9167,-91.9167,58,2,4.0,GT,1674755954
388,talgar,43.3027,77.2395,77.2395,85,20,2.0,KZ,1674755954
389,ukiah,39.1502,-123.2078,-123.2078,50,0,1.16,US,1674755954
390,guanare,9.0418,-69.7421,-69.7421,29,49,3.01,VE,1674755955
391,sergeyevka,53.88,67.4158,67.4158,91,22,7.82,KZ,1674755956
392,linfen,36.0889,111.5189,111.5189,35,0,3.65,CN,1674755956
393,nantucket,41.2835,-70.0995,-70.0995,81,40,11.83,US,1674755956
394,eyl,7.9803,49.8164,49.8164,72,4,7.73,SO,1674755957
395,robe,-37.1833,139.75,139.75,78,1,3.7,AU,1674755957
396,aklavik,68.2191,-135.0107,-135.0107,84,100,2.06,CA,1674755958
397,phan thiet,10.9333,108.1,108.1,79,51,2.14,VN,1674755958
398,lorengau,-2.0226,147.2712,147.2712,80,95,3.61,PG,1674755958
399,abalak,58.1286,68.5944,68.5944,92,100,5.91,RU,1674755959
400,tura,25.5198,90.2201,90.2201,56,32,1.41,IN,1674755959
401,erlangen,49.5897,11.0039,11.0039,87,100,1.03,DE,1674755960
402,borgosesia,45.7145,8.2799,8.2799,82,46,0.74,IT,1674755960
403,esik,43.3552,77.4525,77.4525,80,49,2.34,KZ,1674755960
404,dezful,32.3811,48.4058,48.4058,48,9,1.82,IR,1674755961
405,port blair,11.6667,92.75,92.75,83,40,1.03,IN,1674755961
406,beyneu,45.3167,55.2,55.2,74,7,3.01,KZ,1674755962
407,wanaka,-44.7,169.15,169.15,82,100,2.68,NZ,1674755820
408,doctor phillips,28.4495,-81.4923,-81.4923,64,100,4.12,US,1674755686
409,kandrian,-6.2167,149.55,149.55,90,98,1.69,PG,1674755962
410,san andres,12.5847,-81.7006,-81.7006,74,20,6.69,CO,1674755963
411,akonolinga,3.7667,12.25,12.25,30,49,0.64,CM,1674755963
412,dukat,62.55,155.55,155.55,85,37,3.55,RU,1674755963
413,nerchinskiy zavod,51.3088,119.61,119.61,100,50,0.75,RU,1674755964
414,tadine,-21.55,167.8833,167.8833,84,75,2.95,NC,1674755964
415,bakchar,57.0186,82.0711,82.0711,85,100,7.46,RU,1674755965
416,cozumel,20.5083,-86.9458,-86.9458,86,51,4.02,MX,1674755766
417,meulaboh,4.1363,96.1285,96.1285,85,96,2.05,ID,1674755965
418,saint-pierre,-21.3393,55.4781,55.4781,83,0,1.54,RE,1674755965
419,khokhryaki,56.9156,53.3221,53.3221,94,100,0.45,RU,1674755966
420,zhigansk,66.7697,123.3711,123.3711,100,59,2.23,RU,1674755966
421,suwalki,54.1118,22.9309,22.9309,97,100,1.98,PL,1674755967
422,liverpool,53.4106,-2.9779,-2.9779,80,75,4.63,GB,1674755862
423,blagoyevo,63.3667,47.9167,47.9167,88,78,3.27,RU,1674755968
424,yumen,40.2833,97.2,97.2,53,0,3.29,CN,1674755968
425,kamskoye ustye,55.2016,49.268,49.268,84,99,6.31,RU,1674755968
426,lufilufi,-13.8745,-171.5986,-171.5986,77,25,6.38,WS,1674755969
427,margate,51.3813,1.3862,1.3862,84,35,5.81,GB,1674755969
428,orocue,4.7912,-71.3354,-71.3354,27,25,6.46,CO,1674755970
429,wanning,18.8003,110.3967,110.3967,89,91,2.8,CN,1674755970
430,sao gabriel da cachoeira,-0.1303,-67.0892,-67.0892,62,40,3.09,BR,1674755971
431,olhao,37.0286,-7.8411,-7.8411,60,20,6.17,PT,1674755971
432,baijiantan,45.6333,85.1833,85.1833,87,14,1.0,CN,1674755971
433,mirabad,30.4362,61.8383,61.8383,37,42,1.73,AF,1674755972
434,sabang,5.8933,95.3214,95.3214,79,99,4.79,ID,1674755972
435,kidal,18.4411,1.4078,1.4078,16,25,4.85,ML,1674755973
436,yendi,9.4427,-0.0099,-0.0099,11,2,1.83,GH,1674755973
437,lazaro cardenas,17.9583,-102.2,-102.2,46,0,2.31,MX,1674755973
438,adrar,20.5022,-10.0711,-10.0711,13,99,4.65,MR,1674755974
439,high level,58.5169,-117.136,-117.136,100,100,3.6,CA,1674755974
440,westport,41.1415,-73.3579,-73.3579,59,18,4.92,US,1674755743
441,bathsheba,13.2167,-59.5167,-59.5167,51,20,9.26,BB,1674755975
442,dawlatabad,36.4141,64.9053,64.9053,89,8,0.47,AF,1674755975
443,domoni,-12.2569,44.5319,44.5319,87,100,5.78,KM,1674755975
444,vikhorevka,56.1201,101.1636,101.1636,89,100,5.27,RU,1674755976
445,vzmorye,54.6961,20.2361,20.2361,89,100,2.06,RU,1674755976
446,xianyang,34.3378,108.7026,108.7026,19,0,5.0,CN,1674755976
447,meadow lake,34.8014,-106.5436,-106.5436,46,24,2.72,US,1674755977
448,gewane,10.1664,40.6453,40.6453,31,59,6.38,ET,1674755977
449,aloleng,16.1307,119.7824,119.7824,73,99,4.39,PH,1674755978
450,chicama,-7.8447,-79.1469,-79.1469,51,71,4.34,PE,1674755978
451,haapiti,-17.5667,-149.8667,-149.8667,78,14,7.9,PF,1674755978
452,pangnirtung,66.1451,-65.7125,-65.7125,76,100,2.06,CA,1674755979
453,balkanabat,39.5108,54.3671,54.3671,46,0,0.94,TM,1674755979
454,edremit,39.5961,27.0244,27.0244,68,100,2.08,TR,1674755979
455,stephenville,32.2207,-98.2023,-98.2023,50,0,4.63,US,1674755957
456,saint anthony,45.0205,-93.218,-93.218,68,20,1.54,US,1674755980
457,jalu,29.0331,21.5482,21.5482,51,0,3.71,LY,1674755980
458,goundam,16.4145,-3.6708,-3.6708,12,3,4.14,ML,1674755981
459,brae,60.3964,-1.353,-1.353,67,86,2.92,GB,1674755981
460,ugoofaaru,5.6667,73.0,73.0,78,9,6.73,MV,1674755981
461,maldonado,-34.6667,-54.9167,-54.9167,20,31,8.68,UY,1674755982
462,general roca,-39.0333,-67.5833,-67.5833,11,93,7.09,AR,1674755901
463,uribia,11.7139,-72.266,-72.266,45,97,11.38,CO,1674755982
464,great falls,47.5002,-111.3008,-111.3008,68,95,5.71,US,1674755963
465,pemberton,50.3164,-122.8027,-122.8027,94,100,0.66,CA,1674755982
466,ananas,19.2466,-71.9557,-71.9557,29,5,0.84,HT,1674755983
467,magadan,59.5667,150.8,150.8,57,100,8.93,RU,1674755983
468,kollam,8.8833,76.6,76.6,81,43,1.7,IN,1674755984
469,mimongo,-1.6195,11.6068,11.6068,98,81,1.03,GA,1674755984
470,namatanai,-3.6667,152.4333,152.4333,76,100,1.89,PG,1674755984
471,san javier,37.8063,-0.8374,-0.8374,43,0,3.6,ES,1674755985
472,puttur,12.7667,75.2167,75.2167,94,39,0.98,IN,1674755985
473,bac lieu,9.285,105.7244,105.7244,73,100,1.84,VN,1674755985
474,villazon,-22.0866,-65.5942,-65.5942,33,80,5.26,BO,1674755986
475,basco,20.4487,121.9702,121.9702,75,100,5.15,PH,1674755986
476,sozimskiy,59.7418,52.2482,52.2482,96,100,4.1,RU,1674755986
477,porto nacional,-10.7081,-48.4172,-48.4172,75,88,0.97,BR,1674755987
478,odienne,9.51,-7.5692,-7.5692,19,7,2.79,CI,1674755987
479,hervey bay,-25.2986,152.8535,152.8535,81,98,1.92,AU,1674755987
480,kalevala,65.2,31.1667,31.1667,93,28,2.34,RU,1674755988
481,turukhansk,65.8167,87.9833,87.9833,96,99,7.14,RU,1674755988
482,shingu,33.7333,135.9833,135.9833,81,100,2.16,JP,1674755988
483,kondinskoye,59.6481,67.41,67.41,88,100,6.88,RU,1674755989
484,sao joao da barra,-21.6403,-41.0511,-41.0511,78,31,5.69,BR,1674755989
485,kamina,-8.7386,24.9906,24.9906,93,96,1.45,CD,1674755990
486,udachnyy,66.4167,112.4,112.4,100,71,2.92,RU,1674755990
487,abu samrah,35.3029,37.1841,37.1841,59,0,3.61,SY,1674755991
488,kurumkan,54.3,110.3,110.3,98,99,1.13,RU,1674755991
489,pokrovsk,48.282,37.1758,37.1758,65,0,2.78,UA,1674755991
490,marang,5.2056,103.2059,103.2059,88,100,3.3,MY,1674755992
491,kangaatsiaq,68.3065,-53.4641,-53.4641,89,100,4.21,GL,1674755992
492,imbituba,-28.24,-48.6703,-48.6703,63,43,8.26,BR,1674755858
493,bainbridge,47.6262,-122.5212,-122.5212,93,100,0.45,US,1674755993
494,nemuro,43.3236,145.575,145.575,73,66,11.04,JP,1674755994
495,muscat,23.6139,58.5922,58.5922,57,92,7.2,OM,1674755914
496,hofn,64.2539,-15.2082,-15.2082,93,100,9.77,IS,1674755994
497,gimli,50.6336,-96.9907,-96.9907,85,99,7.72,CA,1674755995
498,otane,-39.8833,176.6333,176.6333,87,99,1.25,NZ,1674755995
499,khammam,17.25,80.15,80.15,76,0,2.99,IN,1674755995
500,kanel,15.4916,-13.1763,-13.1763,17,0,2.06,SN,1674755996
501,lewisporte,49.2499,-55.0482,-55.0482,77,90,4.73,CA,1674755996
502,sangmelima,2.9333,11.9833,11.9833,51,66,2.79,CM,1674755997
503,teberda,43.4456,41.7448,41.7448,66,0,1.74,RU,1674755997
504,montevideo,-34.8335,-56.1674,-56.1674,37,40,8.23,UY,1674755500
505,stornoway,58.2093,-6.3865,-6.3865,91,20,1.54,GB,1674755997
506,yar-sale,66.8333,70.8333,70.8333,99,89,3.14,RU,1674755998
507,maniitsoq,65.4167,-52.9,-52.9,75,100,7.34,GL,1674755998
508,kostivere,59.427,25.0962,25.0962,81,100,2.57,EE,1674755998
509,leh,34.1667,77.5833,77.5833,70,45,0.83,IN,1674755999
510,chita,52.0333,113.55,113.55,66,99,3.0,RU,1674755715
511,grand-santi,4.25,-54.3833,-54.3833,46,60,2.27,GF,1674755999
512,portland,45.5234,-122.6762,-122.6762,89,95,1.34,US,1674755943
513,ust-uda,54.1742,103.0304,103.0304,96,100,1.91,RU,1674756000
514,karpathos,35.507,27.2132,27.2132,82,40,11.83,GR,1674756000
515,ballina,-28.8667,153.5667,153.5667,85,100,2.41,AU,1674756001
516,gat,31.61,34.7642,34.7642,59,0,2.13,IL,1674756002
517,iranshahr,27.2025,60.6848,60.6848,25,86,0.72,IR,1674756002
518,fresno,36.6666,-119.8343,-119.8343,77,0,0.1,US,1674755903
519,colac,-38.3333,143.5833,143.5833,86,10,1.8,AU,1674756004
520,maragogipe,-12.7778,-38.9194,-38.9194,48,99,5.48,BR,1674756005
521,nchelenge,-9.3451,28.734,28.734,80,99,2.05,ZM,1674756008
522,palana,59.1167,159.9667,159.9667,70,96,11.69,RU,1674756013
523,mbulu,-3.85,35.5333,35.5333,66,89,1.38,TZ,1674756015
524,kalianget,-7.05,113.9333,113.9333,88,100,3.6,ID,1674756016
525,mamurras,41.5775,19.6922,19.6922,71,75,3.09,AL,1674756016
526,bandarbeyla,9.4942,50.8122,50.8122,68,17,6.07,SO,1674756017
527,bentiu,9.2333,29.8333,29.8333,15,47,2.64,SS,1674756018
528,krasnoselkup,65.7,82.4667,82.4667,94,100,7.48,RU,1674756018
529,trairi,-3.2778,-39.2689,-39.2689,61,100,5.41,BR,1674756019
530,loiza,18.4313,-65.8802,-65.8802,61,24,5.93,PR,1674756020
531,kantunilkin,21.0917,-87.45,-87.45,85,53,2.55,MX,1674756020
532,rio grande,-32.035,-52.0986,-52.0986,74,93,5.97,BR,1674756020
533,maneadero,31.7167,-116.5667,-116.5667,26,1,4.68,MX,1674756021
534,ngunguru,-35.6167,174.5,174.5,96,100,11.11,NZ,1674756021
535,barahona,18.2085,-71.1008,-71.1008,59,1,4.54,DO,1674756003
536,wattegama,6.7989,81.4808,81.4808,86,100,1.74,LK,1674756026
537,saint-francois,46.4154,3.9054,3.9054,86,100,4.12,FR,1674756026
538,akdepe,42.0551,59.3788,59.3788,54,100,2.94,TM,1674756027
539,cam ranh,11.9214,109.1591,109.1591,83,75,4.63,VN,1674756029
540,saint-georges,12.0564,-61.7485,-61.7485,70,44,7.39,GD,1674756029
541,beya,53.0533,90.9139,90.9139,78,98,5.96,RU,1674756030
542,kalmar,56.6616,16.3616,16.3616,93,100,6.17,SE,1674756031
543,constantine,36.365,6.6147,6.6147,87,75,5.14,DZ,1674756031
544,ariquemes,-9.9133,-63.0408,-63.0408,94,77,2.18,BR,1674756032
545,darhan,49.4867,105.9228,105.9228,91,38,2.95,MN,1674756032
546,lima,-12.0432,-77.0282,-77.0282,69,0,3.6,PE,1674755882
547,mutis,6.2262,-77.4044,-77.4044,79,94,1.34,CO,1674756033
548,strakonice,49.2614,13.9024,13.9024,92,100,0.5,CZ,1674756034
549,broken hill,-31.95,141.4333,141.4333,31,2,4.22,AU,1674755880
550,raudeberg,61.9875,5.1352,5.1352,65,44,2.98,NO,1674756034
551,nieuw amsterdam,5.8833,-55.0833,-55.0833,77,63,4.74,SR,1674756035
552,pochutla,15.7432,-96.4661,-96.4661,35,0,3.01,MX,1674756035
553,popondetta,-8.7537,148.2534,148.2534,96,100,1.0,PG,1674756036
554,yarmouth,41.7057,-70.2286,-70.2286,73,41,7.6,US,1674756036
555,general pico,-35.6566,-63.7568,-63.7568,25,0,4.0,AR,1674756036
556,tvoroyri,61.5556,-6.8111,-6.8111,80,78,11.13,FO,1674756037
557,burns lake,54.2331,-125.7533,-125.7533,100,100,1.23,CA,1674756026
558,havelock,34.8791,-76.9013,-76.9013,63,76,4.02,US,1674756038
559,berlevag,70.8578,29.0864,29.0864,86,100,16.98,NO,1674756039
560,faya,18.3851,42.4509,42.4509,74,15,1.22,SA,1674756039
561,laela,-8.5667,32.05,32.05,91,100,1.09,TZ,1674756040
562,lucapa,-8.4192,20.7447,20.7447,86,99,0.72,AO,1674756040
563,tres arroyos,-38.3739,-60.2798,-60.2798,32,12,4.4,AR,1674755803
564,sale,34.0389,-6.8166,-6.8166,51,40,4.12,MA,1674756040
565,saint-tite,46.7334,-72.5658,-72.5658,90,100,1.76,CA,1674756041
566,peniche,39.3558,-9.3811,-9.3811,91,85,10.96,PT,1674756042
567,eyrarbakki,63.863,-21.1481,-21.1481,96,100,9.54,IS,1674756042
568,chalus,36.655,51.4204,51.4204,78,47,3.43,IR,1674756042
569,maragogi,-9.0122,-35.2225,-35.2225,62,12,5.55,BR,1674756043
570,luzhou,28.8724,105.4405,105.4405,74,100,1.5,CN,1674756043
571,plainview,40.7765,-73.4673,-73.4673,62,100,9.26,US,1674756044
572,kijang,35.2442,129.2139,129.2139,60,100,2.65,KR,1674756044
573,menongue,-14.6585,17.691,17.691,88,73,0.91,AO,1674756044
574,baykit,61.67,96.37,96.37,100,100,1.07,RU,1674756045
